{"type": "FeatureCollection", "features": [{"type": "Feature", "geometry": {"type": "Point", "coordinates": [12.2393808, 47.6060712]}, "properties": {"poi_id": "osm-way-83122401", "name": "Vorderkaiserfeldenhütte", "type": "hut", "ele": 1388.0, "osm": "way/83122401", "aliases": [], "n_entries": 1}}, {"type": "Feature", "geometry": {"type": "Point", "coordinates": [12.2308714, 47.6038666]}, "properties": {"poi_id": "osm-way-83052786", "name": "Ritzaualm", "type": "hut", "ele": 1161.0, "osm": "way/83052786", "aliases": [], "n_entries": 1}}, {"type": "Feature", "geometry": {"type": "Point", "coordinates": [12.2315535, 47.5660961]}, "properties": {"poi_id": "osm-way-83191820", "name": "Kaindlhütte", "type": "hut", "ele": 1293.0, "osm": "way/83191820", "aliases": [], "n_entries": 1}}, {"type": "Feature", "geometry": {"type": "Point", "coordinates": [12.1963548, 47.5742617]}, "properties": {"poi_id": "osm-node-2415975822", "name": "Berghaus Aschenbrenner", "type": "hut", "ele": 1135.0, "osm": "node/2415975822", "aliases": [], "n_entries": 1}}, {"type": "Feature", "geometry": {"type": "Point", "coordinates": [12.2095745, 47.5778028]}, "properties": {"poi_id": "osm-node-2415975826", "name": "Weinbergerhaus", "type": "hut", "ele": 1272.0, "osm": "node/2415975826", "aliases": [], "n_entries": 1}}, {"type": "Feature", "geometry": {"type": "Point", "coordinates": [12.2772696, 47.5800375]}, "properties": {"poi_id": "osm-way-78158759", "name": "Anton-Karg-Haus", "type": "hut", "ele": 829.0, "osm": "way/78158759", "aliases": ["Hinterbärenbad (Anton-Karg-Haus)"], "n_entries": 1}}, {"type": "Feature", "geometry": {"type": "Point", "coordinates": [12.2852001, 47.5775517]}, "properties": {"poi_id": "osm-way-83122419", "name": "Hans-Berger-Haus", "type": "hut", "ele": 936.0, "osm": "way/83122419", "aliases": ["Hans-Berger-Haus (Kaisertalhaus)"], "n_entries": 1}}, {"type": "Feature", "geometry": {"type": "Point", "coordinates": [12.3105153, 47.5770674]}, "properties": {"poi_id": "osm-way-83191764", "name": "Stripsenjochhaus", "type": "hut", "ele": 1602.0, "osm": "way/83191764", "aliases": [], "n_entries": 1}}, {"type": "Feature", "geometry": {"type": "Point", "coordinates": [12.3371859, 47.5641703]}, "properties": {"poi_id": "osm-way-127882802", "name": "Fritz-Pflaum-Hütte", "type": "hut", "ele": 1865.0, "osm": "way/127882802", "aliases": [], "n_entries": 1}}, {"type": "Feature", "geometry": {"type": "Point", "coordinates": [12.3297373, 47.5797844]}, "properties": {"poi_id": "osm-node-289171319", "name": "Griesner Alm", "type": "hut", "ele": 1024.0, "osm": "node/289171319", "aliases": [], "n_entries": 1}}, {"type": "Feature", "geometry": {"type": "Point", "coordinates": [12.2038979, 47.5553509]}, "properties": {"poi_id": "osm-way-60127357", "name": "Walleralm", "type": "path", "ele": null, "osm": "way/60127357", "aliases": ["Walleralm/Stöfflalm"], "n_entries": 1}}, {"type": "Feature", "geometry": {"type": "Point", "coordinates": [12.2976957, 47.54095]}, "properties": {"poi_id": "osm-way-83191748", "name": "Riedlhütte", "type": "hut", "ele": 1268.0, "osm": "way/83191748", "aliases": [], "n_entries": 1}}, {"type": "Feature", "geometry": {"type": "Point", "coordinates": [12.3110566, 47.5535158]}, "properties": {"poi_id": "osm-way-83122437", "name": "Gruttenhütte", "type": "hut", "ele": 1620.0, "osm": "way/83122437", "aliases": [], "n_entries": 1}}, {"type": "Feature", "geometry": {"type": "Point", "coordinates": [12.3245115, 47.5492185]}, "properties": {"poi_id": "osm-way-83191775", "name": "Gaudeamushütte", "type": "hut", "ele": 1263.0, "osm": "way/83191775", "aliases": [], "n_entries": 1}}, {"type": "Feature", "geometry": {"type": "Point", "coordinates": [12.3495045, 47.5495669]}, "properties": {"poi_id": "osm-way-509660012", "name": "Ackerlhütte", "type": "hut", "ele": 1455.0, "osm": "way/509660012", "aliases": [], "n_entries": 1}}, {"type": "Feature", "geometry": {"type": "Point", "coordinates": [12.2121896, 47.5995655]}, "properties": {"poi_id": "osm-node-1962657495", "name": "Rogerkopf", "type": "peak", "ele": 1138.0, "osm": "node/1962657495", "aliases": ["Roger"], "n_entries": 1}}, {"type": "Feature", "geometry": {"type": "Point", "coordinates": [12.2198573, 47.6024043]}, "properties": {"poi_id": "osm-node-966046964", "name": "Lahnkopf", "type": "peak", "ele": 1204.0, "osm": "node/966046964", "aliases": ["Lahnköpfe"], "n_entries": 1}}, {"type": "Feature", "geometry": {"type": "Point", "coordinates": [12.2276581, 47.6045071]}, "properties": {"poi_id": "osm-node-966046965", "name": "Zehnerkopf", "type": "peak", "ele": 1241.0, "osm": "node/966046965", "aliases": [], "n_entries": 1}}, {"type": "Feature", "geometry": {"type": "Point", "coordinates": [12.2426926, 47.609407]}, "properties": {"poi_id": "osm-node-266412097", "name": "Naunspitze", "type": "peak", "ele": 1633.0, "osm": "node/266412097", "aliases": [], "n_entries": 1}}, {"type": "Feature", "geometry": {"type": "Point", "coordinates": [12.2463971, 47.6089803]}, "properties": {"poi_id": "osm-node-256041995", "name": "Petersköpfl", "type": "peak", "ele": 1745.0, "osm": "node/256041995", "aliases": [], "n_entries": 1}}, {"type": "Feature", "geometry": {"type": "Point", "coordinates": [12.1692134, 47.582996]}, "properties": {"poi_id": "osm-node-26902437", "name": "Kufstein", "type": "settlement", "ele": null, "osm": "node/26902437", "aliases": [], "n_entries": 1}}, {"type": "Feature", "geometry": {"type": "Point", "coordinates": [12.2628159, 47.6121415]}, "properties": {"poi_id": "osm-node-966046973", "name": "Einserkogel", "type": "peak", "ele": 1924.0, "osm": "node/966046973", "aliases": [], "n_entries": 1}}, {"type": "Feature", "geometry": {"type": "Point", "coordinates": [12.2650454, 47.610584]}, "properties": {"poi_id": "osm-node-1488838379", "name": "Zwölferkogel", "type": "peak", "ele": 1912.0, "osm": "node/1488838379", "aliases": [], "n_entries": 1}}, {"type": "Feature", "geometry": {"type": "Point", "coordinates": [12.2705058, 47.6118412]}, "properties": {"poi_id": "osm-node-966046966", "name": "Elferkogel", "type": "peak", "ele": 1916.0, "osm": "node/966046966", "aliases": [], "n_entries": 1}}, {"type": "Feature", "geometry": {"type": "Point", "coordinates": [12.2692189, 47.6147159]}, "properties": {"poi_id": "osm-node-1387621784", "name": "Grinnerkopf", "type": "peak", "ele": 1870.0, "osm": "node/1387621784", "aliases": [], "n_entries": 1}}, {"type": "Feature", "geometry": {"type": "Point", "coordinates": [12.2827847, 47.6032617]}, "properties": {"poi_id": "osm-node-966050567", "name": "Hintere Kesselschneid", "type": "peak", "ele": 1995.0, "osm": "node/966050567", "aliases": ["Vordere und Hintere Kesselschneid"], "n_entries": 1}}, {"type": "Feature", "geometry": {"type": "Point", "coordinates": [12.2767442, 47.6100527]}, "properties": {"poi_id": "osm-node-266412290", "name": "Pyramidenspitze", "type": "peak", "ele": 1997.0, "osm": "node/266412290", "aliases": [], "n_entries": 1}}, {"type": "Feature", "geometry": {"type": "Point", "coordinates": [12.2739604, 47.61481]}, "properties": {"poi_id": "osm-node-966046956", "name": "Karlkopf", "type": "peak", "ele": 1821.0, "osm": "node/966046956", "aliases": [], "n_entries": 1}}, {"type": "Feature", "geometry": {"type": "Point", "coordinates": [12.2819626, 47.6137981]}, "properties": {"poi_id": "osm-node-966050616", "name": "Jovenspitze", "type": "peak", "ele": 1892.0, "osm": "node/966050616", "aliases": [], "n_entries": 1}}, {"type": "Feature", "geometry": {"type": "Point", "coordinates": [12.2154318, 47.630874]}, "properties": {"poi_id": "osm-node-240055847", "name": "Ebbs", "type": "settlement", "ele": null, "osm": "node/240055847", "aliases": [], "n_entries": 1}}, {"type": "Feature", "geometry": {"type": "Point", "coordinates": [12.2938519, 47.6039271]}, "properties": {"poi_id": "osm-node-966050589", "name": "Großer Roßkaiser", "type": "peak", "ele": 1978.0, "osm": "node/966050589", "aliases": ["Roßkaiser"], "n_entries": 1}}, {"type": "Feature", "geometry": {"type": "Point", "coordinates": [12.3096596, 47.6194412]}, "properties": {"poi_id": "osm-node-966023087", "name": "Heuberg", "type": "peak", "ele": 1603.0, "osm": "node/966023087", "aliases": [], "n_entries": 1}}, {"type": "Feature", "geometry": {"type": "Point", "coordinates": [12.2989299, 47.5903941]}, "properties": {"poi_id": "osm-node-966050507", "name": "Ropanzen", "type": "peak", "ele": 1572.0, "osm": "node/966050507", "aliases": ["Popanzen"], "n_entries": 1}}, {"type": "Feature", "geometry": {"type": "Point", "coordinates": [12.188782, 47.6138408]}, "properties": {"poi_id": "osm-node-60603000", "name": "Kiefersfelden", "type": "settlement", "ele": null, "osm": "node/60603000", "aliases": [], "n_entries": 1}}, {"type": "Feature", "geometry": {"type": "Point", "coordinates": [12.3498936, 47.6094313]}, "properties": {"poi_id": "osm-node-966050580", "name": "Scheibenkogel", "type": "peak", "ele": 1614.0, "osm": "node/966050580", "aliases": [], "n_entries": 1}}, {"type": "Feature", "geometry": {"type": "Point", "coordinates": [12.3082773, 47.5820342]}, "properties": {"poi_id": "osm-node-256042814", "name": "Stripsenkopf", "type": "peak", "ele": 1807.0, "osm": "node/256042814", "aliases": [], "n_entries": 1}}, {"type": "Feature", "geometry": {"type": "Point", "coordinates": [12.3241773, 47.5922906]}, "properties": {"poi_id": "osm-node-445334918", "name": "Feldberg", "type": "peak", "ele": 1813.0, "osm": "node/445334918", "aliases": [], "n_entries": 1}}, {"type": "Feature", "geometry": {"type": "Point", "coordinates": [12.1719882, 47.6485636]}, "properties": {"poi_id": "osm-node-240030706", "name": "Oberaudorf", "type": "settlement", "ele": null, "osm": "node/240030706", "aliases": [], "n_entries": 1}}, {"type": "Feature", "geometry": {"type": "Point", "coordinates": [12.287521, 47.6385964]}, "properties": {"poi_id": "osm-node-929128522", "name": "Durchholzen", "type": "settlement", "ele": 690.0, "osm": "node/929128522", "aliases": [], "n_entries": 1}}, {"type": "Feature", "geometry": {"type": "Point", "coordinates": [12.1839749, 47.5631417]}, "properties": {"poi_id": "osm-node-1216022413", "name": "Winterkopf", "type": "peak", "ele": 1234.0, "osm": "node/1216022413", "aliases": [], "n_entries": 1}}, {"type": "Feature", "geometry": {"type": "Point", "coordinates": [12.3186415, 47.6512311]}, "properties": {"poi_id": "osm-node-87085344", "name": "Walchsee", "type": "settlement", "ele": null, "osm": "node/87085344", "aliases": [], "n_entries": 1}}, {"type": "Feature", "geometry": {"type": "Point", "coordinates": [12.233969, 47.5802861]}, "properties": {"poi_id": "osm-node-472748172", "name": "Gamskogel", "type": "peak", "ele": 1449.0, "osm": "node/472748172", "aliases": [], "n_entries": 1}}, {"type": "Feature", "geometry": {"type": "Point", "coordinates": [12.2430819, 47.5781407]}, "properties": {"poi_id": "osm-node-4063871487", "name": "Taxköpfl", "type": "peak", "ele": 1433.0, "osm": "node/4063871487", "aliases": [], "n_entries": 1}}, {"type": "Feature", "geometry": {"type": "Point", "coordinates": [12.2442404, 47.5740508]}, "properties": {"poi_id": "osm-node-2859707902", "name": "Brandkogel", "type": "peak", "ele": 1411.0, "osm": "node/2859707902", "aliases": [], "n_entries": 1}}, {"type": "Feature", "geometry": {"type": "Point", "coordinates": [12.2231138, 47.5602675]}, "properties": {"poi_id": "osm-node-829275923", "name": "Hochegg", "type": "peak", "ele": 1470.0, "osm": "node/829275923", "aliases": ["Hocheck"], "n_entries": 1}}, {"type": "Feature", "geometry": {"type": "Point", "coordinates": [12.4055164, 47.6703019]}, "properties": {"poi_id": "osm-node-60602936", "name": "Kössen", "type": "settlement", "ele": null, "osm": "node/60602936", "aliases": ["Kossen"], "n_entries": 1}}, {"type": "Feature", "geometry": {"type": "Point", "coordinates": [12.2188471, 47.5545747]}, "properties": {"poi_id": "osm-node-1395834562", "name": "Zettenkaiserkopf", "type": "peak", "ele": 1609.0, "osm": "node/1395834562", "aliases": [], "n_entries": 1}}, {"type": "Feature", "geometry": {"type": "Point", "coordinates": [12.2275362, 47.5561298]}, "properties": {"poi_id": "osm-node-1315894330", "name": "Grübler Kaiser", "type": "peak", "ele": 1749.0, "osm": "node/1315894330", "aliases": ["Grüblerkaiser"], "n_entries": 1}}, {"type": "Feature", "geometry": {"type": "Point", "coordinates": [12.2356706, 47.5569824]}, "properties": {"poi_id": "osm-node-713557449", "name": "Zettenkaiser", "type": "peak", "ele": 1968.0, "osm": "node/713557449", "aliases": [], "n_entries": 1}}, {"type": "Feature", "geometry": {"type": "Point", "coordinates": [12.3914614, 47.6319693]}, "properties": {"poi_id": "osm-node-240106314", "name": "Schwendt", "type": "settlement", "ele": null, "osm": "node/240106314", "aliases": [], "n_entries": 1}}, {"type": "Feature", "geometry": {"type": "Point", "coordinates": [12.2418396, 47.5573214]}, "properties": {"poi_id": "osm-node-256042759", "name": "Scheffauer", "type": "peak", "ele": 2111.0, "osm": "node/256042759", "aliases": [], "n_entries": 1}}, {"type": "Feature", "geometry": {"type": "Point", "coordinates": [12.2543042, 47.5610199]}, "properties": {"poi_id": "osm-node-1792296952", "name": "Mittlerer Hackenkopf", "type": "peak", "ele": 2119.0, "osm": "node/1792296952", "aliases": ["Hackenköpfe"], "n_entries": 1}}, {"type": "Feature", "geometry": {"type": "Point", "coordinates": [12.2670868, 47.5571041]}, "properties": {"poi_id": "osm-node-747335176", "name": "Sonnenstein", "type": "peak", "ele": 1714.0, "osm": "node/747335176", "aliases": [], "n_entries": 1}}, {"type": "Feature", "geometry": {"type": "Point", "coordinates": [12.277786, 47.5622152]}, "properties": {"poi_id": "osm-node-876206125", "name": "Kopfkraxen", "type": "peak", "ele": 2180.0, "osm": "node/876206125", "aliases": [], "n_entries": 1}}, {"type": "Feature", "geometry": {"type": "Point", "coordinates": [12.283543, 47.5617659]}, "properties": {"poi_id": "osm-node-1305583293", "name": "Sonneck", "type": "peak", "ele": 2260.0, "osm": "node/1305583293", "aliases": [], "n_entries": 1}}, {"type": "Feature", "geometry": {"type": "Point", "coordinates": [12.2791474, 47.5666235]}, "properties": {"poi_id": "osm-node-1864709720", "name": "Oberes Gamskarköpfl", "type": "peak", "ele": 2040.0, "osm": "node/1864709720", "aliases": ["Gamskarköpfl"], "n_entries": 1}}, {"type": "Feature", "geometry": {"type": "Point", "coordinates": [12.2889122, 47.5599796]}, "properties": {"poi_id": "osm-node-2970414458", "name": "Kleinkaiserl", "type": "peak", "ele": null, "osm": "node/2970414458", "aliases": [], "n_entries": 1}}, {"type": "Feature", "geometry": {"type": "Point", "coordinates": [12.291484, 47.5553498]}, "properties": {"poi_id": "osm-node-256042829", "name": "Treffauer", "type": "peak", "ele": 2304.0, "osm": "node/256042829", "aliases": [], "n_entries": 1}}, {"type": "Feature", "geometry": {"type": "Point", "coordinates": [12.2939855, 47.5498968]}, "properties": {"poi_id": "osm-node-9826180207", "name": "Schutterfeldköpfe", "type": "peak", "ele": 1962.0, "osm": "node/9826180207", "aliases": [], "n_entries": 1}}, {"type": "Feature", "geometry": {"type": "Point", "coordinates": [12.3018112, 47.5583179]}, "properties": {"poi_id": "osm-node-1985738210", "name": "Kaiserkopf", "type": "peak", "ele": 2159.0, "osm": "node/1985738210", "aliases": [], "n_entries": 1}}, {"type": "Feature", "geometry": {"type": "Point", "coordinates": [12.3025296, 47.5616377]}, "properties": {"poi_id": "osm-node-713546737", "name": "Ellmauer Halt", "type": "peak", "ele": 2342.0, "osm": "node/713546737", "aliases": [], "n_entries": 1}}, {"type": "Feature", "geometry": {"type": "Point", "coordinates": [12.3047346, 47.5615767]}, "properties": {"poi_id": "osm-node-2971927671", "name": "Leuchsturm", "type": "peak", "ele": 2270.0, "osm": "node/2971927671", "aliases": [], "n_entries": 1}}, {"type": "Feature", "geometry": {"type": "Point", "coordinates": [12.3001049, 47.5645399]}, "properties": {"poi_id": "osm-node-871781004", "name": "Gamshalt", "type": "peak", "ele": 2289.0, "osm": "node/871781004", "aliases": [], "n_entries": 1}}, {"type": "Feature", "geometry": {"type": "Point", "coordinates": [12.4489994, 47.5586658]}, "properties": {"poi_id": "osm-node-240080870", "name": "Kirchdorf in Tirol", "type": "settlement", "ele": null, "osm": "node/240080870", "aliases": [], "n_entries": 1}}, {"type": "Feature", "geometry": {"type": "Point", "coordinates": [12.2974082, 47.56754]}, "properties": {"poi_id": "osm-node-871780998", "name": "Kleine Halt", "type": "peak", "ele": 2122.0, "osm": "node/871780998", "aliases": [], "n_entries": 1}}, {"type": "Feature", "geometry": {"type": "Point", "coordinates": [12.2971868, 47.5695336]}, "properties": {"poi_id": "osm-node-2970263174", "name": "Totensessel", "type": "peak", "ele": null, "osm": "node/2970263174", "aliases": [], "n_entries": 1}}, {"type": "Feature", "geometry": {"type": "Point", "coordinates": [12.4286809, 47.5224141]}, "properties": {"poi_id": "osm-node-32463266", "name": "St. Johann in Tirol", "type": "settlement", "ele": 659.0, "osm": "node/32463266", "aliases": [], "n_entries": 1}}, {"type": "Feature", "geometry": {"type": "Point", "coordinates": [12.3149605, 47.5669536]}, "properties": {"poi_id": "osm-node-1911442596", "name": "Hintere Karlspitze", "type": "peak", "ele": 2279.0, "osm": "node/1911442596", "aliases": ["Vordere und Hintere Karlspitze"], "n_entries": 1}}, {"type": "Feature", "geometry": {"type": "Point", "coordinates": [12.3275716, 47.5142224]}, "properties": {"poi_id": "osm-node-2163025636", "name": "Going", "type": "settlement", "ele": null, "osm": "node/2163025636", "aliases": [], "n_entries": 1}}, {"type": "Feature", "geometry": {"type": "Point", "coordinates": [12.3119444, 47.57]}, "properties": {"poi_id": "osm-node-256042834", "name": "Totenkirchl", "type": "peak", "ele": 2190.0, "osm": "node/256042834", "aliases": [], "n_entries": 1}}, {"type": "Feature", "geometry": {"type": "Point", "coordinates": [12.3176243, 47.5692514]}, "properties": {"poi_id": "osm-node-256041993", "name": "Fleischbank", "type": "peak", "ele": 2186.0, "osm": "node/256041993", "aliases": [], "n_entries": 1}}, {"type": "Feature", "geometry": {"type": "Point", "coordinates": [12.3172394, 47.5683539]}, "properties": {"poi_id": "osm-node-2407153474", "name": "Christaturm", "type": "peak", "ele": 2170.0, "osm": "node/2407153474", "aliases": [], "n_entries": 1}}, {"type": "Feature", "geometry": {"type": "Point", "coordinates": [12.3231896, 47.5706067]}, "properties": {"poi_id": "osm-node-2406417044", "name": "Predigtstuhl", "type": "peak", "ele": 2116.0, "osm": "node/2406417044", "aliases": ["Predigtstuhl-Hauptgipfel"], "n_entries": 1}}, {"type": "Feature", "geometry": {"type": "Point", "coordinates": [12.3239622, 47.5687712]}, "properties": {"poi_id": "osm-node-713526918", "name": "Hintere Goinger Halt", "type": "peak", "ele": 2192.0, "osm": "node/713526918", "aliases": [], "n_entries": 1}}, {"type": "Feature", "geometry": {"type": "Point", "coordinates": [12.3253687, 47.5646007]}, "properties": {"poi_id": "osm-node-256041744", "name": "Vordere Goinger Halt", "type": "peak", "ele": 2242.0, "osm": "node/256041744", "aliases": [], "n_entries": 1}}, {"type": "Feature", "geometry": {"type": "Point", "coordinates": [12.3273143, 47.5614336]}, "properties": {"poi_id": "osm-node-2752291206", "name": "Nördliche Törlspitze", "type": "peak", "ele": 2190.0, "osm": "node/2752291206", "aliases": [], "n_entries": 1}}, {"type": "Feature", "geometry": {"type": "Point", "coordinates": [12.325704, 47.5611766]}, "properties": {"poi_id": "osm-node-4069388306", "name": "Bauernpredigtstuhl", "type": "peak", "ele": 2110.0, "osm": "node/4069388306", "aliases": [], "n_entries": 1}}, {"type": "Feature", "geometry": {"type": "Point", "coordinates": [12.3278939, 47.5607595]}, "properties": {"poi_id": "osm-node-2752291203", "name": "Goinger Turm", "type": "peak", "ele": 2204.0, "osm": "node/2752291203", "aliases": [], "n_entries": 1}}, {"type": "Feature", "geometry": {"type": "Point", "coordinates": [12.3282453, 47.5601442]}, "properties": {"poi_id": "osm-node-13703746584", "name": "Goinger Törlspitze", "type": "peak", "ele": 2227.0, "osm": "node/13703746584", "aliases": [], "n_entries": 1}}, {"type": "Feature", "geometry": {"type": "Point", "coordinates": [12.3304488, 47.5591179]}, "properties": {"poi_id": "osm-node-13703746582", "name": "Westliches Törleck", "type": "peak", "ele": 2200.0, "osm": "node/13703746582", "aliases": ["Westliches und Östliches Törleck"], "n_entries": 1}}, {"type": "Feature", "geometry": {"type": "Point", "coordinates": [12.3330586, 47.5576466]}, "properties": {"poi_id": "osm-node-2752423175", "name": "Kreuztörlturm", "type": "peak", "ele": 2170.0, "osm": "node/2752423175", "aliases": [], "n_entries": 1}}, {"type": "Feature", "geometry": {"type": "Point", "coordinates": [12.3024747, 47.5136972]}, "properties": {"poi_id": "osm-node-240101949", "name": "Ellmau", "type": "settlement", "ele": null, "osm": "node/240101949", "aliases": [], "n_entries": 1}}, {"type": "Feature", "geometry": {"type": "Point", "coordinates": [12.3358046, 47.5568208]}, "properties": {"poi_id": "osm-node-10853249257", "name": "Törlwand", "type": "peak", "ele": 2197.0, "osm": "node/10853249257", "aliases": ["Töriwand"], "n_entries": 1}}, {"type": "Feature", "geometry": {"type": "Point", "coordinates": [12.3372818, 47.5563055]}, "properties": {"poi_id": "osm-node-713514492", "name": "Regalmwand", "type": "peak", "ele": 2227.0, "osm": "node/713514492", "aliases": [], "n_entries": 1}}, {"type": "Feature", "geometry": {"type": "Point", "coordinates": [12.3390054, 47.5566161]}, "properties": {"poi_id": "osm-node-256042734", "name": "Regalmspitze", "type": "peak", "ele": 2253.0, "osm": "node/256042734", "aliases": [], "n_entries": 1}}, {"type": "Feature", "geometry": {"type": "Point", "coordinates": [12.3396897, 47.5575125]}, "properties": {"poi_id": "osm-node-1962286324", "name": "Regalmturm", "type": "peak", "ele": 2230.0, "osm": "node/1962286324", "aliases": [], "n_entries": 1}}, {"type": "Feature", "geometry": {"type": "Point", "coordinates": [12.3450985, 47.5587933]}, "properties": {"poi_id": "osm-node-4598928810", "name": "Östliche Hochgrubachspitze", "type": "peak", "ele": 2284.0, "osm": "node/4598928810", "aliases": [], "n_entries": 1}}, {"type": "Feature", "geometry": {"type": "Point", "coordinates": [12.347188, 47.559125]}, "properties": {"poi_id": "osm-node-256041587", "name": "Ackerlspitze", "type": "peak", "ele": 2329.0, "osm": "node/256041587", "aliases": [], "n_entries": 1}}, {"type": "Feature", "geometry": {"type": "Point", "coordinates": [12.3563668, 47.5588954]}, "properties": {"poi_id": "osm-node-256041932", "name": "Maukspitze", "type": "peak", "ele": 2231.0, "osm": "node/256041932", "aliases": [], "n_entries": 1}}, {"type": "Feature", "geometry": {"type": "Point", "coordinates": [12.3490902, 47.5631239]}, "properties": {"poi_id": "osm-node-2406635144", "name": "Vordere Gamsflucht", "type": "peak", "ele": 2203.0, "osm": "node/2406635144", "aliases": [], "n_entries": 1}}, {"type": "Feature", "geometry": {"type": "Point", "coordinates": [12.3491618, 47.566797]}, "properties": {"poi_id": "osm-node-2406635143", "name": "Hintere Gamsflucht", "type": "peak", "ele": 2121.0, "osm": "node/2406635143", "aliases": [], "n_entries": 1}}, {"type": "Feature", "geometry": {"type": "Point", "coordinates": [12.3515446, 47.569032]}, "properties": {"poi_id": "osm-node-256041892", "name": "Lärcheck", "type": "peak", "ele": 2123.0, "osm": "node/256041892", "aliases": [], "n_entries": 1}}, {"type": "Feature", "geometry": {"type": "Point", "coordinates": [12.3343566, 47.5632294]}, "properties": {"poi_id": "osm-node-1850604784", "name": "Kleinkaiser", "type": "peak", "ele": 2039.0, "osm": "node/1850604784", "aliases": [], "n_entries": 1}}]}